{"сitylist":[{"lat":"55.7522200","lon":"37.6155600","name":"Москва"},{"lat":"59.939095","lon":"30.315868","name":"Санкт-Петербург"},{"lat":"55.798551","lon":"49.106324","name":"Казань"},{"lat":"43.585525","lon":"39.723062","name":"Сочи"},{"lat":"56.838607","lon":"60.605514","name":"Екатеринбург"},{"lat":"56.3286700","lon":"44.0020500","name":"Нижний Новгород"},{"lat":"55.0415000","lon":"82.9346000","name":"Новосибирск"},{"lat":"43.1056200","lon":"131.8735300","name":"Владивосток"},]}